NO,名称,名称_カナ,住所,方書,緯度,経度,標高,電話番号,内線番号,市区町村コード,都道府県名,市区町村名,災害種別_洪水,災害種別_崖崩れ、土石流及び地滑り,災害種別_高潮,災害種別_地震,災害種別_津波,災害種別_大規模な火事,災害種別_内水氾濫,災害種別_火山現象,指定避難所との重複,想定収容人数,対象となる町会・自治会,URL,備考
1,玉井公園,,熊谷市玉井1973-314,,36.17812,135.498651,,,,,,,1,,,1,,,,,,,,,指定緊急避難場所(一時避難場所)
2,外原公園,,熊谷市拾六間774-2,,36.171419,135.5040007,,,,,,,1,,,1,,,,,,,,,指定緊急避難場所(一時避難場所)
3,寿公園,,熊谷市拾六間788-29,,36.170665,135.475372,,,,,,,1,,,1,,,,,,,,,指定緊急避難場所(一時避難場所)
4,籠原第1公園,,熊谷市新堀1154-12,,36.17417,135.5774312,,,,,,,1,,,1,,,,,,,,,指定緊急避難場所(一時避難場所)
5,美土里町公園,,熊谷市美土里町1-20,,36.1697,135.511401,,,,,,,1,,,1,,,,,,,,,指定緊急避難場所(一時避難場所)
6,別府第1公園,,熊谷市別府2-83,,36.185784,135.4259661,,,,,,,1,,,1,,,,,,,,,指定緊急避難場所(一時避難場所)
7,別府第2公園,,熊谷市別府4-44,,36.182735,135.5328017,,,,,,,1,,,1,,,,,,,,,指定緊急避難場所(一時避難場所)
8,別府第3公園,,熊谷市別府5-51,,36.180231,135.531116,,,,,,,1,,,1,,,,,,,,,指定緊急避難場所(一時避難場所)
9,玉井稲荷木第1公園,,熊谷市玉井南3-19,,36.174145,135.4860178,,,,,,,1,,,1,,,,,,,,,指定緊急避難場所(一時避難場所)
10,玉井稲荷木第2公園,,熊谷市玉井南2-88,,36.176345,135.4847127,,,,,,,1,,,1,,,,,,,,,指定緊急避難場所(一時避難場所)
11,玉井在家第1公園,,熊谷市玉井3-69,,36.180113,135.4779643,,,,,,,1,,,1,,,,,,,,,指定緊急避難場所(一時避難場所)
12,玉井在家第2公園,,熊谷市玉井2-24,,36.178647,135.49091,,,,,,,1,,,1,,,,,,,,,指定緊急避難場所(一時避難場所)
13,玉井在家第3公園,,熊谷市玉井5-71,,36.177553,135.507804,,,,,,,1,,,1,,,,,,,,,指定緊急避難場所(一時避難場所)
14,新堀第２公園,,籠原中央第一土地区画整理事業地内,,36.17595943,135.518436,,,,,,,1,,,1,,,,,,,,,指定緊急避難場所(一時避難場所)
15,新堀第３公園,,籠原中央第一土地区画整理事業地内,,36.17804335,135.530583,,,,,,,1,,,1,,,,,,,,,指定緊急避難場所(一時避難場所)
16,新堀第４公園,,籠原中央第一土地区画整理事業地内,,36.1771088,135.516059,,,,,,,1,,,1,,,,,,,,,指定緊急避難場所(一時避難場所)
17,新堀第５公園,,籠原中央第一土地区画整理事業地内,,36.17890417,135.497763,,,,,,,1,,,1,,,,,,,,,指定緊急避難場所(一時避難場所)
18,広瀬川原公園,,熊谷市瀬南68,,36.145467,135.4984249,,,,,,,1,,,1,,,,,,,,,指定緊急避難場所(一時避難場所)
19,籠原中央公園,,籠原南2-102,,36.168979,135.439455,,,,,,,1,,,1,,,,,,,,,指定緊急避難場所(一時避難場所)
20,籠原南第1公園,,熊谷市籠原南1-303,,36.172941,135.4395986,,,,,,,1,,,1,,,,,,,,,指定緊急避難場所(一時避難場所)
21,籠原南第2公園,,熊谷市籠原南1-56,,36.171759,135.5052558,,,,,,,1,,,1,,,,,,,,,指定緊急避難場所(一時避難場所)
22,籠原南第3公園,,籠原南3-141,,36.171257,135.5083515,,,,,,,1,,,1,,,,,,,,,指定緊急避難場所(一時避難場所)
23,籠原南第4公園,,籠原南3-76,,36.169805,135.5068172,,,,,,,1,,,1,,,,,,,,,指定緊急避難場所(一時避難場所)
24,マミ-マ-ト籠原店(駐車場),,熊谷市新堀新田523,,36.172753,135.502802,,,,,,,1,,,1,,,,,,,,,指定緊急避難場所(一時避難場所)
25,別府沼公園,,熊谷市西別府1456,,36.194913,135.537329,,,,,,,1,,,1,,,,,,,,,指定緊急避難場所(広域避難場所)
26,熊谷さくら運動公園,,熊谷市小島157-1,,36.154673,135.46218,,,,,,,1,,,1,,,,,,,,,指定緊急避難場所(広域避難場所)
27,大麻生小学校,,熊谷市大麻生51,,36.1494278,135.4839571,,,,,,,1,,,1,,,,,,,,,指定避難所兼指定緊急避難場所(第一避難所)
28,玉井小学校,,熊谷市高柳116-1,,36.17294,135.5589274,,,,,,,1,,,1,,,,,,,,,指定避難所兼指定緊急避難場所(第一避難所)
29,別府小学校,,熊谷市西別府29-1,,36.1935454,135.5046652,,,,,,,1,,,1,,,,,,,,,指定避難所兼指定緊急避難場所(第一避難所)
30,三尻小学校,,熊谷市三ヶ尻2862-1,,36.1588236,135.5288011,,,,,,,1,,,1,,,,,,,,,指定避難所兼指定緊急避難場所(第一避難所)
31,籠原小学校,,熊谷市新堀1143,,36.1737163,135.5485221,,,,,,,1,,,1,,,,,,,,,指定避難所兼指定緊急避難場所(第一避難所)
32,新堀小学校,,熊谷市新堀182,,36.1728669,135.5029626,,,,,,,1,,,1,,,,,,,,,指定避難所兼指定緊急避難場所(第一避難所)
33,玉井中学校,,熊谷市久保島888,,36.168276,135.5422914,,,,,,,1,,,1,,,,,,,,,指定避難所兼指定緊急避難場所(第二避難所)
34,大麻生中学校,,熊谷市大麻生35-1,,36.1509859,135.5637083,,,,,,,1,,,1,,,,,,,,,指定避難所兼指定緊急避難場所(第二避難所)
35,別府中学校,,熊谷市西別府1817,,36.1875737,135.5229105,,,,,,,1,,,1,,,,,,,,,指定避難所兼指定緊急避難場所(第二避難所)
36,三尻中学校,,熊谷市三ヶ尻2743,,36.1620233,135.5097104,,,,,,,1,,,1,,,,,,,,,指定避難所兼指定緊急避難場所(第二避難所)
37,熊谷西高等学校,,熊谷市三ヶ尻2066,,36.16397,135.512817,,,,,,,1,,,1,,,,,,,,,指定避難所兼指定緊急避難場所(第二避難所)
38,熊谷商業高等学校,,熊谷市広瀬800,,36.1492752,135.5210828,,,,,,,1,,,1,,,,,,,,,指定避難所兼指定緊急避難場所(第二避難所)
39,熊谷工業高等学校,,熊谷市小島820,,36.1566134,135.5380836,,,,,,,1,,,1,,,,,,,,,指定避難所兼指定緊急避難場所(第二避難所)
40,玉井保育所,,熊谷市玉井2105-1,,36.1786415,135.4272238,,,,,,,1,,,0,,,,,,,,,指定避難所兼指定緊急避難場所(第二避難所)
41,籠原保育所,,熊谷市新堀1124,,36.1748858,135.515027,,,,,,,1,,,0,,,,,,,,,指定避難所兼指定緊急避難場所(第二避難所)
42,籠原公民館･西児童館,,熊谷市新堀新田576-1,,36.1724469,135.5130476,,,,,,,1,,,0,,,,,,,,,指定避難所兼指定緊急避難場所(第二避難所)
43,新堀公民館,,熊谷市新堀202-1,,36.1729669,135.5128491,,,,,,,1,,,1,,,,,,,,,指定避難所兼指定緊急避難場所(第二避難所)
44,別府公民館,,熊谷市西別府2252-1,,36.19361036,135.5140209,,,,,,,1,,,1,,,,,,,,,指定避難所兼指定緊急避難場所(第二避難所)
45,別府体育館,,熊谷市西別府2252-1,,36.19320114,135.5154836,,,,,,,1,,,0,,,,,,,,,指定避難所兼指定緊急避難場所(第二避難所)
46,熊谷文化創造館さくらめいと,,熊谷市拾六間111-1,,36.1655758,135.5128467,,,,,,,1,,,1,,,,,,,,,指定避難所兼指定緊急避難場所(第二避難所)
47,老人福祉センタ-　別府荘,,熊谷市西別府583-1,,36.195664,135.5131685,,,,,,,1,,,0,,,,,,,,,福祉避難所
48,熊谷特別支援学校,,熊谷市川原明戸605,,36.1410007,135.5139697,,,,,,,1,,,1,,,,,,,,,福祉避難所
49,障害者支援施設　新光苑,,熊谷市小島527,,36.1548272,135.5149621,,,,,,,1,,,1,,,,,,,,,福祉避難所
50,中島助産院,,熊谷市大麻生422-1,,36.147695,135.522527,,,,,,,1,,,1,,,,,,,,,福祉避難所
51,特別養護老人ホ-ム　ル-エ,,熊谷市川原明戸471-3,,36.141782,135.540277,,,,,,,1,,,1,,,,,,,,,福祉避難所
52,特別養護老人ホ-ム　のぞみの里,,熊谷市拾六間299-1,,36.166739,135.468367,,,,,,,1,,,1,,,,,,,,,福祉避難所
53,特別養護老人ホ-ム　はなぶさ苑,,熊谷市玉井1145-1,,36.170706,135.5611451,,,,,,,1,,,1,,,,,,,,,福祉避難所
54,特別養護老人ホ-ム　永寿苑,,熊谷市西別府1599-5,,36.191587,135.435917,,,,,,,1,,,1,,,,,,,,,福祉避難所
55,老人福祉施設　熊谷ホ-ム,,熊谷市新堀1140,,36.174747,135.441277,,,,,,,1,,,1,,,,,,,,,福祉避難所
56,養護老人ホ-ム　熊谷ホ-ム,,熊谷市新堀1140,,36.174357,135.4336925,,,,,,,1,,,1,,,,,,,,,福祉避難所
57,大幡公園,,熊谷市柿沼780-1,,36.166733,135.4861743,,,,,,,1,,,1,,,,,,,,,指定緊急避難場所(一時避難場所)
58,熊谷スポ-ツ文化公園,,熊谷市上川上810,,36.167453,135.4855106,,,,,,,1,,,1,,,,,,,,,指定緊急避難場所(広域避難場所)
59,中条小学校,,熊谷市上中条892-1,,36.1809151,135.494106,,,,,,,1,,,1,,,,,,,,,指定避難所兼指定緊急避難場所(第一避難所)
60,奈良小学校,,熊谷市下奈良561-3,,36.1862193,135.4922447,,,,,,,1,,,1,,,,,,,,,指定避難所兼指定緊急避難場所(第一避難所)
61,大幡小学校,,熊谷市代681,,36.1695517,135.4954608,,,,,,,1,,,1,,,,,,,,,指定避難所兼指定緊急避難場所(第一避難所)
62,中条中学校,,熊谷市今井539-1,,36.1772822,135.4809869,,,,,,,1,,,1,,,,,,,,,指定避難所兼指定緊急避難場所(第二避難所)
63,奈良中学校,,熊谷市上奈良1038,,36.1826694,135.4920183,,,,,,,1,,,1,,,,,,,,,指定避難所兼指定緊急避難場所(第二避難所)
64,大幡中学校,,熊谷市原島834-1,,36.1635162,135.4996949,,,,,,,1,,,1,,,,,,,,,指定避難所兼指定緊急避難場所(第二避難所)
65,中条農村センタ-,,熊谷市上中条812,,36.178871,135.5111891,,,,,,,1,,,0,,,,,,,,,指定避難所兼指定緊急避難場所(第二避難所)
66,中条保育所,,熊谷市上中条833-1,,36.1784292,135.510012,,,,,,,1,,,0,,,,,,,,,指定避難所兼指定緊急避難場所(第二避難所)
67,農業活性化センタ-,,熊谷市中奈良897,,36.190977,135.5253706,,,,,,,1,,,1,,,,,,,,,指定避難所兼指定緊急避難場所(第二避難所)
68,大幡児童館,,熊谷市代597-4,,36.1700406,135.5104655,,,,,,,1,,,1,,,,,,,,,指定避難所兼指定緊急避難場所(第二避難所)
69,熊谷市スポ-ツ･文化村「くまぴあ」(創作展示棟を除く。),,熊谷市原島315,,36.1707458,135.4336925,,,,,,,1,,,1,,,,,,,,,指定避難所兼指定緊急避難場所(第二避難所)
70,熊谷市スポ-ツ･文化村「くまぴあ」(創作展示棟),,熊谷市原島315,,36.171132,135.5054596,,,,,,,1,,,1,,,,,,,,,福祉避難所
71,特別養護老人ホ-ム　玉の緒,,熊谷市大塚179-2,,36.141782,135.5008256,,,,,,,1,,,1,,,,,,,,,福祉避難所
72,特別養護老人ホ-ム　彩華園,,熊谷市上川上266,,36.166706,135.5007043,,,,,,,1,,,1,,,,,,,,,福祉避難所
